src_id,Name,Area,Area type,Station start date,Station end date,Latitude,Longitude,Postcode
971,ABBOTSINCH ,RENFREWSHIRE ,COUNTY ,01/01/1966,Current ,55.8695,-4.42948,PA3 2 
1161,ABERDARON ,GWYNEDD ,COUNTY ,01/01/1993,Current ,52.7886,-4.74026,LL53 8 
30810,ABERFELDY: DULL ,PERTHSHIRE (IN TAYSIDE REGION) ,COUNTY ,01/02/2003,01/03/2017,56.6207,-3.92385,PH15 2 
1198,ABERPORTH ,DYFED ,COUNTY ,01/01/1941,Current ,52.1391,-4.56999,SA43 1 
150,ABOYNE NO 2 ,ABERDEENSHIRE ,COUNTY ,01/01/1989,Current ,57.076,-2.83948,AB34 5 
38,ACHFARY ,SUTHERLAND ,COUNTY ,01/01/1914,Current ,58.3112,-4.91506,IV27 4 
57267,ACHILTIBUIE NO2 ,ROSS & CROMARTY ,COUNTY ,01/05/2013,Current ,58.015,-5.33526,IV26 2 
14093,ACHNAGART ,ROSS & CROMARTY ,COUNTY ,01/01/1967,Current ,57.1816,-5.37346,IV40 8 
1588,AKROTIRI: CYPRUS ,CYPRUS ,ISLAND ,01/01/1956,Current ,34.583,32.983,None 
30523,ALBEMARLE ,NORTHUMBERLAND ,COUNTY ,18/02/2002,Current ,55.0197,-1.88012,NE18 
1450,ALDERGROVE ,ANTRIM ,COUNTY ,01/01/1926,Current ,54.6636,-6.22436,BT29 4 
1574,ALDERNEY ,ALDERNEY ,ISLAND ,01/01/1957,Current ,49.7,-2.217,None 
868,ALICE HOLT LODGE ,HAMPSHIRE ,COUNTY ,01/01/1948,Current ,51.1777,-0.84866,GU10 4 
62122,ALMONDSBURY ,AVON ,COUNTY ,27/03/2018,Current ,51.5509,-2.558,BS32 4 
24793,ALSTON: SPRINGHOUSE PARK ,CUMBRIA ,COUNTY ,01/11/1998,Current ,54.8105,-2.45575,CA9 
44,ALTNAHARRA NO 2 ,SUTHERLAND ,COUNTY ,01/01/1983,Current ,58.2881,-4.44101,IV27 4 
1452,ALTNAHINCH FILTERS ,ANTRIM ,COUNTY ,01/01/1965,Current ,55.0478,-6.25433,BT44 9 
62031,AMERSHAM FIELD CENTRE ,BUCKINGHAMSHIRE ,COUNTY ,01/07/2015,Current ,51.6641,-0.65585,HP7 0 
9529,AMMERDOWN HOUSE ,SOMERSET ,COUNTY ,01/01/1946,Current ,51.2729,-2.41257,BA3 5 
19188,ANDREWSFIELD ,ESSEX ,COUNTY ,01/09/1997,Current ,51.8957,0.45225,CM6 3 
103,AONACH MOR ,INVERNESS-SHIRE ,COUNTY ,01/01/1992,Current ,56.8223,-4.96787,PH34 4 
1530,ARMAGH ,ARMAGH ,COUNTY ,1836-01-01 ,Current ,54.3523,-6.64866,BT61 7 
937,ARRAN: BRODICK CASTLE ,BUTESHIRE ,COUNTY ,01/01/1964,Current ,55.592,-5.15302,KA27 8 
1603,ASCENSION ISLAND AIRFIELD ,ASCENSION IS ,ISLAND ,01/04/1957,Current ,-7.967,-14.4,None 
660,ASTWOOD BANK ,HEREFORD & WORCESTER ,COUNTY ,01/01/1976,Current ,52.2477,-1.93352,B96 6 
1005,AUCHINCRUIVE ,AYRSHIRE ,COUNTY ,01/01/1931,Current ,55.477,-4.56384,KA6 5 
15381,AUCHTERMUCHTY: ROSSIE ,FIFE ,COUNTY ,01/01/1992,Current ,56.299,-3.20131,KY7 7 
52,AULTBEA NO 2 ,ROSS & CROMARTY ,COUNTY ,01/01/1986,Current ,57.8592,-5.63159,IV22 2 
113,AVIEMORE ,INVERNESS-SHIRE ,COUNTY ,01/01/1982,Current ,57.2065,-3.82693,PH22 1 
674,AVONMOUTH ,AVON ,COUNTY ,01/01/1952,Current ,51.5055,-2.71532,BS11 9 
339,BAINBRIDGE ,NORTH YORKSHIRE ,COUNTY ,01/01/1957,Current ,54.3081,-2.09973,DL8 3 
62039,BAINTOWN ,FIFE ,COUNTY ,01/09/2015,Current ,56.2209,-3.04112,KY8 5 
1180,BALA ,GWYNEDD ,COUNTY ,01/01/1939,Current ,52.9073,-3.58303,LL23 7 
56909,BALLYHAISE ,CAVAN ,COUNTY ,01/04/2008,Current ,54.051,-7.31,None 
1467,BALLYPATRICK FOREST ,ANTRIM ,COUNTY ,01/01/1961,Current ,55.1806,-6.15336,BT54 6 
1517,BALLYWATTICOCK ,DOWN ,COUNTY ,01/01/1961,Current ,54.5721,-5.65603,BT22 2 
148,BALMORAL ,ABERDEENSHIRE ,COUNTY ,1882-01-01 ,Current ,57.0375,-3.21897,AB35 5 
12,BALTASOUND NO 2 ,SHETLAND ,SCOTTISH REGION ,01/01/1983,Current ,60.7489,-0.85365,ZE2 9 
1431,BANAGHER: CAUGH HILL ,LONDONDERRY ,COUNTY ,01/01/1969,Current ,54.8856,-6.96549,BT47 4 
142,BANFF: GOLF CLUB ,BANFFSHIRE ,COUNTY ,01/01/1988,Current ,57.6612,-2.51907,AB45 1 
2515,BANK NEWTON NO 2 ,NORTH YORKSHIRE ,COUNTY ,01/01/1972,Current ,53.9753,-2.13232,BD23 3 
18907,BARKSTON HEATH AIRFIELD ,LINCOLNSHIRE ,COUNTY ,01/06/1995,Current ,53.0107,-0.51383,NG32 
13298,BARWHILLANTY HOUSE ,KIRKCUDBRIGHTSHIRE ,COUNTY ,01/01/1973,Current ,55.0144,-3.99618,DG7 3 
62084,BATTERSEA HELIPORT ,GREATER LONDON ,COUNTY ,18/05/2018,Current ,51.4691,-0.17782,SW11 3 
30270,BEALACH NA BA NO 2 ,ROSS & CROMARTY ,COUNTY ,01/07/2001,Current ,57.4181,-5.68744,IV54 8 
461,BEDFORD ,BEDFORDSHIRE ,COUNTY ,01/01/1956,Current ,52.2265,-0.46376,MK44 2 
18908,BELFAST HARBOUR NO 2 ,ANTRIM ,COUNTY ,01/06/1988,Current ,54.6141,-5.91008,BT13 3 
1475,BELFAST NEWFORGE ,DOWN ,COUNTY ,01/01/1982,Current ,54.5602,-5.93976,BT9 5 
17101,BELMULLET ,MAYO ,COUNTY ,01/01/1983,Current ,54.233,-10,None 
18909,BENBECULA ,WESTERN ISLES ,SCOTTISH REGION ,01/01/1994,Current ,57.4636,-7.37303,PA88 5 
926,BENMORE: YOUNGER BOTANIC GARDEN ,ARGYLL (IN STRATHCLYDE REGION) ,COUNTY ,01/01/1949,Current ,56.0282,-4.98377,PA23 8 
613,BENSON ,OXFORDSHIRE ,COUNTY ,01/01/1951,Current ,51.6199,-1.09712,OX9 6 
1367,BERRY HEAD ,DEVON ,COUNTY ,01/01/1993,Current ,50.3989,-3.48284,TQ5 9 
30747,BERWICK-UPON-TWEED: MURTON FARM ,NORTHUMBERLAND ,COUNTY ,01/12/2002,06/02/2017,55.7326,-2.05066,TD15 2 
1148,BETWS-Y-COED ,CLWYD ,COUNTY ,01/01/1976,Current ,53.0971,-3.78833,LL26 0 
61875,BEWCASTLE ,CUMBRIA ,COUNTY ,01/08/2013,Current ,55.0648,-2.71369,CA6 6 
18911,BIGGIN HILL ,GREATER LONDON ,COUNTY ,01/07/1983,Current ,51.3541,-0.01219,CR0 0 
513,BINGLEY: NO 2 ,WEST YORKSHIRE ,COUNTY ,01/01/1972,Current ,53.811,-1.86526,BD15 0 
1090,BLACKPOOL: SQUIRES GATE ,LANCASHIRE ,COUNTY ,01/01/1942,Current ,53.7746,-3.03647,FY8 2 
1067,BLENCATHRA ,CUMBRIA ,COUNTY ,01/01/1992,Current ,54.6197,-3.07912,CA12 4 
267,BLYTHE ,BERWICKSHIRE ,COUNTY ,01/01/1965,Current ,55.7375,-2.66086,TD2 6 
782,BOGNOR REGIS ,WEST SUSSEX ,COUNTY ,1898-01-01 ,Current ,50.7813,-0.67512,PO21 1 
889,BOSCOMBE DOWN ,WILTSHIRE ,COUNTY ,01/01/1930,Current ,51.1613,-1.75317,SP4 7 
1605,BOTTOMS WOOD: ST HELENA ,ST HELENA ,ISLAND ,01/01/1958,Current ,-15.933,-5.667,None 
315,BOULMER ,NORTHUMBERLAND ,COUNTY ,01/01/1975,Current ,55.4208,-1.59966,NE66 3 
843,BOURNEMOUTH: KINGS PARK ,DORSET ,COUNTY ,01/01/1980,Current ,50.7337,-1.82236,BH7 6 
279,BOWHILL ,SELKIRKSHIRE ,COUNTY ,01/01/1954,Current ,55.5409,-2.90458,TD7 5 
516,BRADFORD ,WEST YORKSHIRE ,COUNTY ,01/01/1908,Current ,53.8134,-1.77234,BD9 4 
55827,BRAEMAR NO 2 ,ABERDEENSHIRE ,COUNTY ,27/06/2005,Current ,57.0108,-3.39576,AB35 5 
534,BRAMHAM ,WEST YORKSHIRE ,COUNTY ,01/01/1952,Current ,53.8687,-1.31722,LS24 9 
25618,BRAMPTON NO 3 ,CUMBRIA ,COUNTY ,01/01/1999,Current ,54.935,-2.73339,CA8 
19203,BRIDGEFOOT ,CUMBRIA ,COUNTY ,01/10/1997,Current ,54.649,-3.45812,CA14 1 
373,BRIDLINGTON MRSC ,HUMBERSIDE ,COUNTY ,01/01/1987,Current ,54.0938,-0.17413,YO15 1 
18912,BRISTOL/LULSGATE ,AVON ,COUNTY ,01/07/1983,Current ,51.385,-2.71285,BS19 3 
605,BRIZE NORTON ,OXFORDSHIRE ,COUNTY ,01/01/1968,Current ,51.758,-1.57649,OX18 3 
30084,BROADWINDSOR ,DORSET ,COUNTY ,01/08/2000,Current ,50.8213,-2.78861,DT8 
435,BROOMS BARN ,SUFFOLK ,COUNTY ,01/01/1964,Current ,52.2601,0.56723,IP29 5 
1418,BUDE ,CORNWALL ,COUNTY ,01/01/1911,Current ,50.828,-4.54483,EX23 8 
62057,BUNTINGFORD: NO 2 ,HERTFORDSHIRE ,COUNTY ,07/04/2014,Current ,51.9429,-0.08961,SG9 9 
61915,BURE MARSHES NNR ,NORFOLK ,COUNTY ,23/07/2014,01/10/2018,52.6963,1.45667,NR13 
57118,BUTE: ROTHESAY NO2 ,BUTESHIRE ,COUNTY ,01/06/2012,Current ,55.8254,-5.055,PA20 9 
539,BUXTON ,DERBYSHIRE ,COUNTY ,1865-01-01 ,Current ,53.2577,-1.91242,SK17 6 
118,CAIRNGORM CHAIRLIFT ,INVERNESS-SHIRE ,COUNTY ,01/01/1980,Current ,57.1336,-3.66733,PH22 1 
117,CAIRNGORM SUMMIT ,INVERNESS-SHIRE ,COUNTY ,01/01/1984,Current ,57.1164,-3.64165,AB35 5 
145,CAIRNWELL ,ABERDEENSHIRE ,COUNTY ,01/01/1993,Current ,56.8792,-3.41952,PH10 7 
1395,CAMBORNE ,CORNWALL ,COUNTY ,01/01/1978,Current ,50.2178,-5.32656,TR14 0 
454,CAMBRIDGE: BOTANIC GARDEN ,CAMBRIDGESHIRE ,COUNTY ,1891-01-01 ,Current ,52.1935,0.13113,CB2 2 
455,CAMBRIDGE: NIAB ,CAMBRIDGESHIRE ,COUNTY ,01/01/1950,Current ,52.245,0.10196,CB4 3 
18913,CAMBRIDGE NO 2 ,CAMBRIDGESHIRE ,COUNTY ,01/01/1985,Current ,52.2249,0.22563,CB5 9 
1171,CAPEL CURIG NO 3 ,GWYNEDD ,COUNTY ,01/01/1993,Current ,53.0939,-3.94016,LL24 0 
1272,CARDIFF: BUTE PARK ,SOUTH GLAMORGAN ,COUNTY ,01/01/1969,Current ,51.4878,-3.18728,CF1 2 
1415,CARDINHAM: BODMIN ,CORNWALL ,COUNTY ,01/01/1974,Current ,50.5016,-4.66579,PL30 4 
1070,CARLISLE ,CUMBRIA ,COUNTY ,01/01/1961,Current ,54.9342,-2.96223,CA6 4 
18914,CARLISLE AIRPORT ,CUMBRIA ,COUNTY ,01/07/1983,Current ,55.0023,-2.75675,CA6 6 
347,CARLTON-IN-CLEVELAND ,CLEVELAND ,COUNTY ,01/01/1991,Current ,54.4278,-1.21591,TS9 7 
285,CARTERHOUSE ,ROXBURGHSHIRE ,COUNTY ,01/01/1989,02/07/2018,55.3583,-2.51741,TD8 6 
24089,CASEMENT AERODROME ,DUBLIN ,COUNTY ,01/01/1964,Current ,53.3,-6.39999,None 
40,CASSLEY ,SUTHERLAND ,COUNTY ,01/01/1960,Current ,58.1683,-4.72596,IV27 4 
1543,CASTLEDERG ,TYRONE ,COUNTY ,01/01/1963,Current ,54.707,-7.57668,BT81 7 
1508,CASTLEREAGH ,DOWN ,COUNTY ,01/01/1990,Current ,54.5649,-5.87004,BT6 9 
436,CAVENDISH ,SUFFOLK ,COUNTY ,01/01/1974,Current ,52.0902,0.62961,CO10 8 
19193,CAWDOR CASTLE NO 2 ,NAIRNSHIRE ,COUNTY ,01/10/1997,Current ,57.5253,-3.92305,IV12 5 
535,CAWOOD ,NORTH YORKSHIRE ,COUNTY ,01/01/1951,Current ,53.8275,-1.14671,YO8 0 
30620,CHARLWOOD ,SURREY ,COUNTY ,22/07/2002,Current ,51.1435,-0.22786,None 
442,CHARSFIELD ,SUFFOLK ,COUNTY ,01/01/1906,Current ,52.1623,1.28136,IP13 7 
268,CHARTERHALL ,BERWICKSHIRE ,COUNTY ,01/01/1987,Current ,55.7086,-2.3833,TD11 3 
6313,CHERTSEY: ABBEY MEAD P STA ,SURREY ,COUNTY ,01/01/1914,Current ,51.398,-0.49515,KT16 8 
16031,CHILLINGHAM BARNS ,NORTHUMBERLAND ,COUNTY ,01/01/1958,Current ,55.5299,-1.91676,NE66 5 
1346,CHIVENOR ,DEVON ,COUNTY ,01/01/1943,Current ,51.0886,-4.14743,EX31 4 
595,CHURCH LAWFORD ,WARWICKSHIRE ,COUNTY ,01/01/1983,Current ,52.3584,-1.32987,CV23 9 
6182,CIPPENHAM S WKS ,BERKSHIRE ,COUNTY ,01/01/1961,Current ,51.5062,-0.64126,SL1 9 
688,CIRENCESTER ,GLOUCESTERSHIRE ,COUNTY ,01/01/1948,Current ,51.7085,-1.99447,GL7 6 
17098,CLAREMORRIS ,MAYO ,COUNTY ,01/01/1974,Current ,53.716,-8.98298,None 
56451,CLUANIE INN NO 3 ,ROSS & CROMARTY ,COUNTY ,13/05/2009,Current ,57.1561,-5.18103,IV63 
24998,COLERNE ,WILTSHIRE ,COUNTY ,25/06/1997,Current ,51.4327,-2.28342,SN14 
19187,COLESHILL ,WARWICKSHIRE ,COUNTY ,01/09/1997,Current ,52.4798,-1.68925,B46 3 
1149,COLWYN BAY ,CLWYD ,COUNTY ,01/01/1929,Current ,53.2907,-3.71335,LL29 8 
393,CONINGSBY ,LINCOLNSHIRE ,COUNTY ,01/01/1961,Current ,53.0935,-0.17119,LN4 4 
24090,CONNAUGHT AIRPORT ,MAYO ,COUNTY ,01/08/1996,Current ,53.9,-8.81703,None 
17182,COPLEY ,DURHAM ,COUNTY ,01/12/1995,Current ,54.6237,-1.86904,DL13 5 
11256,CORGAM ,DYFED ,COUNTY ,01/01/1986,Current ,52.2225,-4.07911,SA48 8 
17091,CORK AIRPORT ,CORK ,COUNTY ,01/01/1974,Current ,51.849,-8.483,None 
18915,COSFORD ,SHROPSHIRE ,COUNTY ,01/01/1992,Current ,52.6399,-2.30904,WV7 3 
542,COTON-IN-THE-ELMS ,DERBYSHIRE ,COUNTY ,01/01/1991,Current ,52.7367,-1.6396,DE12 8 
600,COVENTRY AIRPORT ,WARWICKSHIRE ,COUNTY ,01/08/1955,Current ,52.3653,-1.48886,CV8 3 
24102,COVENTRY: COUNDON ,WEST MIDLANDS ,COUNTY ,01/10/1998,Current ,52.4241,-1.53498,CV1 
160,CRAIBSTONE ,ABERDEENSHIRE ,COUNTY ,01/01/1925,Current ,57.1868,-2.21323,AB2 9 
18916,CRANFIELD ,BEDFORDSHIRE ,COUNTY ,01/01/1989,Current ,52.1034,-0.58361,MK43 9 
386,CRANWELL ,LINCOLNSHIRE ,COUNTY ,01/01/1917,Current ,53.0309,-0.50194,NG34 8 
15045,CROMBIE COUNTRY PARK ,ANGUS ,COUNTY ,1867-01-01 ,Current ,56.5537,-2.77576,DD5 3 
56463,CROMDALE ,MORAY (IN HIGHLAND REGION) ,COUNTY ,01/07/2009,Current ,57.3374,-3.54153,PH26 3 
426,CROMER ,NORFOLK ,COUNTY ,1880-01-01 ,Current ,52.9332,1.29273,NR27 9 
17309,CROSBY ,MERSEYSIDE ,COUNTY ,01/01/1983,Current ,53.497,-3.0563,L23 8 
1393,CULDROSE ,CORNWALL ,COUNTY ,01/01/1952,Current ,50.0838,-5.25609,TR12 7 
62149,CULZEAN CASTLE NO 2 ,AYRSHIRE ,COUNTY ,01/05/2018,Current ,55.3556,-4.78013,KA19 8 
232,CUPAR: ELMWOOD AG COLLEGE ,FIFE ,COUNTY ,01/01/1973,Current ,56.3188,-3.03078,KY15 4 
116,DALCROSS ,INVERNESS-SHIRE ,COUNTY ,01/01/1948,Current ,57.542,-4.06096,IV1 2 
1214,DALE FORT ,DYFED ,COUNTY ,01/01/1950,Current ,51.7025,-5.15089,SA62 3 
111,DALWHINNIE NO 2 ,INVERNESS-SHIRE ,COUNTY ,01/01/1973,Current ,56.9402,-4.2366,PH19 1 
56130,DAWYCK BOTANIC GARDEN ,PEEBLESHIRE ,COUNTY ,01/04/2007,Current ,55.6037,-3.32174,EH45 9 
407,DENVER ,NORFOLK ,COUNTY ,01/01/1936,Current ,52.5826,0.34773,PE38 0 
61973,DERBYSHIRE DALES NNR ,DERBYSHIRE ,COUNTY ,20/11/2014,01/10/2018,53.2614,-1.73432,SK17 8 
30286,DERRYGONNELLY FSC ,FERMANAGH ,COUNTY ,01/09/2001,Current ,54.4178,-7.82025,BT93 6 
24103,DERRYLIN: CORNAHOULE ,FERMANAGH ,COUNTY ,01/11/1998,Current ,54.1891,-7.56057,BT92 
61843,DERSINGHAM BOG NNR ,NORFOLK ,COUNTY ,11/02/2014,01/10/2018,52.8337,0.49127,PE31 
405,DONNA NOOK NO 2 ,LINCOLNSHIRE ,COUNTY ,01/01/1993,Current ,53.4745,0.1546,LN11 7 
987,DRUMALBIN ,LANARKSHIRE ,COUNTY ,01/01/1984,Current ,55.6271,-3.73481,ML11 9 
1066,DRUMBURGH ,CUMBRIA ,COUNTY ,01/01/1991,Current ,54.9317,-3.15766,CA5 5 
208,DRUMMOND CASTLE ,PERTHSHIRE (IN TAYSIDE REGION) ,COUNTY ,01/01/1969,Current ,56.3382,-3.87608,PH5 2 
114,DRUMNADROCHIT ,INVERNESS-SHIRE ,COUNTY ,01/01/1990,Current ,57.3285,-4.4847,IV3 6 
17097,DUBLIN AIRPORT ,DUBLIN ,COUNTY ,01/01/1974,Current ,53.433,-6.25007,None 
19259,DUMFRIES: CRICHTON ROYAL NO 2 ,DUMFRIESSHIRE ,COUNTY ,01/09/1997,Current ,55.0472,-3.58801,DG1 4 
264,DUNBAR ,EAST LOTHIAN ,COUNTY ,01/01/1930,Current ,56.0045,-2.52681,EH42 1 
15365,DUNBARNEY: SOUTH HILL ,PERTHSHIRE (IN TAYSIDE REGION) ,COUNTY ,01/01/1988,Current ,56.3442,-3.44269,PH2 9 
18918,DUNDEE (RIVERSIDE PARK) ,ANGUS ,COUNTY ,01/01/1995,Current ,56.4527,-3.01737,DD4 0 
1033,DUNDRENNAN ,KIRKCUDBRIGHTSHIRE ,COUNTY ,01/01/1983,Current ,54.8033,-4.00663,DG6 4 
1383,DUNKESWELL AERODROME ,DEVON ,COUNTY ,01/01/1964,Current ,50.8597,-3.2389,EX14 0 
14444,DUNROBIN CASTLE GARDENS ,SUTHERLAND ,COUNTY ,01/01/1981,Current ,57.9805,-3.9437,KW10 6 
918,DUNSTAFFNAGE ,ARGYLL (IN STRATHCLYDE REGION) ,COUNTY ,02/06/1964,Current ,56.4505,-5.43859,PA37 1 
326,DURHAM ,DURHAM ,COUNTY ,1851-01-01 ,Current ,54.7679,-1.58455,DH1 4 
176,DURRIS ,KINCARDINESHIRE ,COUNTY ,01/01/1988,Current ,57.0317,-2.4024,AB31 3 
161,DYCE ,ABERDEENSHIRE ,COUNTY ,01/01/1942,Current ,57.2051,-2.2037,AB2 0 
439,EAST BERGHOLT ,SUFFOLK ,COUNTY ,01/01/1952,Current ,51.9592,1.02498,CO7 6 
744,EAST MALLING ,KENT ,COUNTY ,01/01/1925,Current ,51.287,0.45006,ME19 6 
18919,EAST MIDLANDS ,NOTTINGHAMSHIRE ,COUNTY ,01/07/1983,Current ,52.8829,-1.2777,NG10 3 
636,EDGE ,SHROPSHIRE ,COUNTY ,01/01/1988,Current ,52.6733,-2.88947,SY5 9 
19260,EDINBURGH: GOGARBANK ,MIDLOTHIAN (IN LOTHIAN REGION) ,COUNTY ,01/01/1998,Current ,55.9284,-3.34294,EH12 9 
253,EDINBURGH: ROYAL BOTANIC GARDEN NO 2 ,MIDLOTHIAN (IN LOTHIAN REGION) ,COUNTY ,01/01/1926,Current ,55.9665,-3.20598,EH3 5 
593,ELMDON ,WEST MIDLANDS ,COUNTY ,01/01/1949,Current ,52.4524,-1.74099,B26 3 
56958,EMLEY MOOR NO 2 ,WEST YORKSHIRE ,COUNTY ,02/08/2011,Current ,53.6118,-1.66698,HD8 9 
1023,ESKDALEMUIR ,DUMFRIESSHIRE ,COUNTY ,01/01/1908,Current ,55.3118,-3.20545,DG13 0 
1378,EXETER AIRPORT ,DEVON ,COUNTY ,01/01/1944,Current ,50.7301,-3.41566,EX5 2 
62041,EXETER AIRPORT NO 2 ,DEVON ,COUNTY ,03/11/2009,Current ,50.7366,-3.40458,EX5 2 
18920,FAIRFORD AIRFIELD NO 2 ,GLOUCESTERSHIRE ,COUNTY ,01/07/1983,Current ,51.7241,-1.76689,GL7 3 
3,FAIR ISLE ,SHETLAND ,SCOTTISH REGION ,01/01/1974,Current ,59.5265,-1.62777,ZE2 9 
214,FASKALLY ,PERTHSHIRE (IN TAYSIDE REGION) ,COUNTY ,01/01/1949,Current ,56.7181,-3.76825,PH16 5 
757,FAVERSHAM ,KENT ,COUNTY ,01/01/1957,Current ,51.2965,0.87959,ME13 0 
5100,FELSHAM ,SUFFOLK ,COUNTY ,01/01/1967,Current ,52.1719,0.83253,IP30 0 
17310,FETTERCAIRN: GLENSAUGH NO 2 ,KINCARDINESHIRE ,COUNTY ,01/03/1948,Current ,56.8928,-2.5406,AB30 1 
676,FILTON ,AVON ,COUNTY ,01/01/1950,15/10/2018,51.5214,-2.57577,BS12 7 
24275,FINNER ,DONEGAL ,COUNTY ,01/04/1996,Current ,54.5,-8.23294,None 
286,FLOORS CASTLE ,ROXBURGHSHIRE ,COUNTY ,01/01/1941,Current ,55.6028,-2.46699,TD5 7 
1324,FONTMELL MAGNA ,DORSET ,COUNTY ,01/01/1988,Current ,50.9505,-2.18403,SP7 0 
62076,FORREST LODGE: BURNHEAD ,KIRKCUDBRIGHTSHIRE ,COUNTY ,17/03/2016,Current ,55.1444,-4.27641,DG7 3 
56904,FRITTENDEN ,KENT ,COUNTY ,10/02/2011,Current ,51.1412,0.59737,TN17 2 
358,FYLINGDALES ,NORTH YORKSHIRE ,COUNTY ,01/01/1961,Current ,54.3586,-0.66999,YO18 7 
159,FYVIE CASTLE ,ABERDEENSHIRE ,COUNTY ,01/01/1908,Current ,57.443,-2.38813,AB53 8 
949,GARTOCHARN: PORTNELLAN FARM ,DUNBARTONSHIRE ,COUNTY ,01/01/1992,Current ,56.0481,-4.56591,G83 8 
30127,GARVIE ISLAND ,SUTHERLAND ,COUNTY ,01/10/2000,Current ,58.6169,-4.86711,None 
725,GATWICK ,WEST SUSSEX ,COUNTY ,01/01/1958,Current ,51.151,-0.19111,RH6 0 
56937,GIANTS CAUSEWAY ,ANTRIM ,COUNTY ,10/05/2011,Current ,55.2344,-6.51112,BT57 8 
1585,GIBRALTAR: NORTH FRONT ,GIBRALTAR ,COUNTRY ,01/01/1951,Current ,36.15,-5.35,None 
24125,GLASGOW: BISHOPTON ,RENFREWSHIRE ,COUNTY ,01/01/1998,Current ,55.9068,-4.53122,PA7 
1534,GLENANNE NO 2 ,ARMAGH ,COUNTY ,01/01/1985,Current ,54.2371,-6.50256,BT60 2 
17336,GLEN OGLE ,PERTHSHIRE (IN CENTRAL REGION) ,COUNTY ,01/08/1996,Current ,56.4235,-4.31873,FK20 8 
18921,GLOUCESTERSHIRE AIRPORT ,GLOUCESTERSHIRE ,COUNTY ,01/07/1983,Current ,51.8915,-2.16713,GL51 9 
1205,GOGERDDAN ,DYFED ,COUNTY ,01/01/1953,Current ,52.4319,-4.01929,SY23 3 
56962,GOSPORT: FLEETLANDS ,HAMPSHIRE ,COUNTY ,01/08/2011,Current ,50.8358,-1.16679,PO13 
742,GOUDHURST ,KENT ,COUNTY ,01/01/1934,Current ,51.0766,0.46117,TN17 2 
963,GRANGEMOUTH REFINERY ,STIRLING (IN CENTRAL REGION) ,COUNTY ,01/01/1969,Current ,56.0093,-3.68512,FK3 9 
16588,GRAVESEND: BROADNESS ,KENT ,COUNTY ,15/09/1995,30/08/2018,51.464,0.31301,DA11 
1085,GREAT DUN FELL NO 2 ,CUMBRIA ,COUNTY ,01/01/1993,Current ,54.6839,-2.44986,CA10 1 
19204,GRINGLEY-ON-THE-HILL ,NOTTINGHAMSHIRE ,COUNTY ,14/12/1996,Current ,53.4059,-0.88265,DN10 4 
940,GT CUMBRAE: MILLPORT ,BUTESHIRE ,COUNTY ,01/01/1910,Current ,55.7493,-4.90659,KA28 0 
1572,GUERNSEY: AIRPORT ,GUERNSEY ,ISLAND ,01/01/1949,Current ,49.432,-2.598,GY8 0 
56908,GURTEEN ,SLIGO ,COUNTY ,01/04/2008,Current ,53.053,-8.009,None 
711,HAMPTON W WKS ,GREATER LONDON ,COUNTY ,01/01/1944,Current ,51.4114,-0.37652,TW12 2 
19211,HARRIS: QUIDNISH ,WESTERN ISLES ,SCOTTISH REGION ,01/09/1997,Current ,57.7803,-6.89629,HS3 3 
24218,HARTPURY COLLEGE ,GLOUCESTERSHIRE ,COUNTY ,01/11/1998,Current ,51.9038,-2.31109,GL19 
818,HASTINGS ,EAST SUSSEX ,COUNTY ,01/01/1934,Current ,50.8552,0.57159,TN34 1 
1144,HAWARDEN AIRPORT ,CLWYD ,COUNTY ,01/01/1944,Current ,53.1752,-2.98499,CH4 0 
863,HAYLING ISLAND ,HAMPSHIRE ,COUNTY ,01/01/1954,Current ,50.7845,-0.98462,PO11 9 
1105,HAZELRIGG ,LANCASHIRE ,COUNTY ,01/01/1976,Current ,54.0138,-2.77371,LA2 0 
708,HEATHROW ,GREATER LONDON ,COUNTY ,01/01/1947,Current ,51.4787,-0.44904,TW6 2 
1523,HELENS BAY ,DOWN ,COUNTY ,01/01/1961,Current ,54.6686,-5.74742,BT20 3 
24996,HEREFORD: CREDENHILL ,HEREFORD & WORCESTER ,COUNTY ,01/08/1999,Current ,52.0796,-2.80102,HR4 
811,HERSTMONCEUX: WEST END ,EAST SUSSEX ,COUNTY ,01/01/1992,Current ,50.8904,0.31818,BN27 4 
481,HIGH BEACH ,ESSEX ,COUNTY ,01/01/1978,Current ,51.6634,0.04298,IG10 4 
527,HIGH BRADFIELD ,SOUTH YORKSHIRE ,COUNTY ,01/01/1973,20/09/2018,53.4325,-1.5824,S6 6 
367,HIGH MOWTHORPE ,NORTH YORKSHIRE ,COUNTY ,01/01/1951,Current ,54.1048,-0.64149,YO17 8 
17176,HIGH WYCOMBE: HQAIR ,BUCKINGHAMSHIRE ,COUNTY ,01/12/1995,Current ,51.6813,-0.80528,HP17 0 
1489,HILLSBOROUGH ,DOWN ,COUNTY ,01/01/1930,Current ,54.4525,-6.07151,BT26 6 
395,HOLBEACH NO 2 ,LINCOLNSHIRE ,COUNTY ,01/01/1985,Current ,52.8729,0.14021,PE12 9 
23510,HOLNE: PRIDDONS FARM ,DEVON ,COUNTY ,01/07/1998,Current ,50.5168,-3.84164,TQ13 7 
30476,HOUGHTON HALL ,NORFOLK ,COUNTY ,01/12/2001,Current ,52.8237,0.65408,PE31 6 
56986,HULL: EAST PARK ,HUMBERSIDE ,COUNTY ,14/10/2011,Current ,53.7656,-0.29638,HU8 
18923,HUMBERSIDE ,HUMBERSIDE ,COUNTY ,01/07/1983,Current ,53.6297,-0.28041,DN40 3 
996,HUNTERSTON NO 3 ,AYRSHIRE ,COUNTY ,01/01/1963,Current ,55.7227,-4.89218,KA23 9 
8231,HUNTSHAM ,DEVON ,COUNTY ,01/01/1964,Current ,50.9526,-3.43723,EX16 7 
842,HURN ,DORSET ,COUNTY ,01/01/1951,Current ,50.7789,-1.83483,BH23 6 
61937,INGLEBOROUGH NNR ,LANCASHIRE ,COUNTY ,22/09/2014,01/10/2018,54.1796,-2.36708,LA6 3 
177,INVERBERVIE NO 2 ,KINCARDINESHIRE ,COUNTY ,01/01/1987,Current ,56.8521,-2.26435,DD10 0 
23417,ISLAY: PORT ELLEN ,ARGYLL (IN STRATHCLYDE REGION) ,COUNTY ,01/01/1968,Current ,55.6813,-6.24866,PA42 7 
1319,ISLE OF PORTLAND ,DORSET ,COUNTY ,01/05/1963,Current ,50.5216,-2.45431,DT5 2 
62083,IVER W WKS ,BUCKINGHAMSHIRE ,COUNTY ,28/06/2016,Current ,51.5119,-0.49461,SL0 9 
1575,JERSEY: AIRPORT ,JERSEY ,ISLAND ,01/01/1952,Current ,49.208,-2.196,JE3 7 
56370,JOHNSTOWN CASTLE ,WEXFORD ,COUNTY ,01/11/2008,Current ,52.3,-6.5,None 
1504,KATESBRIDGE ,DOWN ,COUNTY ,01/01/1983,Current ,54.2966,-6.11019,BT32 5 
622,KEELE ,STAFFORDSHIRE ,COUNTY ,01/01/1951,Current ,52.9986,-2.2688,ST5 5 
726,KENLEY AIRFIELD ,GREATER LONDON ,COUNTY ,01/01/1988,Current ,51.3035,-0.08994,CR3 0 
1060,KESWICK ,CUMBRIA ,COUNTY ,01/01/1983,Current ,54.6139,-3.15525,CA12 4 
723,KEW GARDENS ,GREATER LONDON ,COUNTY ,01/01/1910,Current ,51.4813,-0.29276,TW9 3 
289,KIELDER CASTLE ,NORTHUMBERLAND ,COUNTY ,01/01/1949,Current ,55.2343,-2.579,NE48 1 
57254,KIELDERHEAD MOOR NNR ,NORTHUMBERLAND ,COUNTY ,01/03/2013,01/10/2018,55.302,-2.50409,NE48 1 
1488,KILLOWEN ,DOWN ,COUNTY ,01/01/1989,Current ,54.0767,-6.18303,BT35 9 
19192,KILLYLANE ,ANTRIM ,COUNTY ,01/01/1976,Current ,54.8174,-6.0039,BT42 3 
48,KINBRACE: HATCHERY ,SUTHERLAND ,COUNTY ,01/01/1956,Current ,58.2306,-3.92063,KW11 6 
219,KINDROGAN ,PERTHSHIRE (IN TAYSIDE REGION) ,COUNTY ,01/01/1972,Current ,56.7481,-3.54558,PH10 7 
7975,KINGSTON MAURWARD ,DORSET ,COUNTY ,01/01/1963,Current ,50.7174,-2.39694,DT2 8 
66,KINLOCHEWE ,ROSS & CROMARTY ,COUNTY ,01/01/1953,Current ,57.613,-5.30503,IV22 2 
132,KINLOSS ,MORAY (IN GRAMPIAN REGION) ,COUNTY ,01/01/1950,Current ,57.6457,-3.56202,IV36 0 
226,KINROSS ,KINROSS-SHIRE ,COUNTY ,01/01/1966,Current ,56.2146,-3.41121,KY13 7 
23,KIRKWALL ,ORKNEY ,SCOTTISH REGION ,01/01/1950,Current ,58.9539,-2.89988,KW17 2 
883,LACOCK ,WILTSHIRE ,COUNTY ,01/01/1948,Current ,51.4307,-2.11325,SN15 2 
18925,LAKENHEATH ,SUFFOLK ,COUNTY ,01/07/1983,Current ,52.4192,0.61931,IP27 0 
1190,LAKE VYRNWY NO 2 ,POWYS (NORTH) ,COUNTY ,01/01/1988,Current ,52.757,-3.46411,SY10 0 
743,LANGDON BAY ,KENT ,COUNTY ,01/01/1984,Current ,51.133,1.34502,CT15 5 
8898,LAPFORD ,DEVON ,COUNTY ,01/01/1994,Current ,50.8626,-3.80831,EX17 6 
888,LARKHILL ,WILTSHIRE ,COUNTY ,01/01/1920,Current ,51.2012,-1.80443,SP4 8 
983,LEADHILLS ,LANARKSHIRE ,COUNTY ,01/01/1953,Current ,55.4164,-3.75828,ML12 6 
370,LECONFIELD ,HUMBERSIDE ,COUNTY ,01/01/1959,Current ,53.8744,-0.44009,HU17 7 
18927,LEEDS AND BRADFORD ,WEST YORKSHIRE ,COUNTY ,01/07/1983,Current ,53.9282,-1.5979,LS21 2 
30690,LEEK: THORNCLIFFE ,STAFFORDSHIRE ,COUNTY ,28/10/2002,Current ,53.1275,-1.97993,ST13 7 
17314,LEEMING ,NORTH YORKSHIRE ,COUNTY ,01/01/1944,Current ,54.2968,-1.53145,DL7 9 
110,LENTRAN ,INVERNESS-SHIRE ,COUNTY ,01/01/1974,Current ,57.4597,-4.37192,IV3 6 
9,LERWICK ,SHETLAND ,SCOTTISH REGION ,01/01/1922,Current ,60.1395,-1.18299,ZE1 0 
235,LEUCHARS ,FIFE ,COUNTY ,01/01/1921,Current ,56.3774,-2.86051,KY16 0 
1080,LEVENS HALL ,CUMBRIA ,COUNTY ,01/01/1992,Current ,54.2587,-2.77706,LA8 8 
1249,LIBANUS ,POWYS (SOUTH) ,COUNTY ,01/01/1992,Current ,51.924,-3.48781,LD3 8 
4934,LINGWOOD: STRUMPSHAW HILL ,NORFOLK ,COUNTY ,01/01/1994,Current ,52.6105,1.48483,NR13 4 
7621,LINKENHOLT POST OFFICE ,HAMPSHIRE ,COUNTY ,01/01/1986,Current ,51.3193,-1.47784,SP11 0 
346,LINTON ON OUSE ,NORTH YORKSHIRE ,COUNTY ,01/01/1958,Current ,54.045,-1.24956,YO6 2 
1285,LISCOMBE ,SOMERSET ,COUNTY ,01/01/1993,Current ,51.0864,-3.60775,TA22 9 
692,LITTLE RISSINGTON ,GLOUCESTERSHIRE ,COUNTY ,01/01/1942,Current ,51.8603,-1.69148,GL54 2 
18985,LIVINGSTON MILL ,WEST LOTHIAN (IN LOTHIAN REGION) ,COUNTY ,01/10/1996,Current ,55.8849,-3.5447,EH54 7 
30448,LLANFYNYDD: BRODERI ,DYFED ,COUNTY ,01/01/2001,Current ,51.9182,-4.10021,SA32 
1245,LLANGUNLLO: CEFNSURAN ,POWYS (SOUTH) ,COUNTY ,01/01/1989,Current ,52.3319,-3.13202,LD7 1 
1238,LLYSDINAM ,POWYS (SOUTH) ,COUNTY ,1882-01-01 ,Current ,52.2153,-3.45029,LD1 6 
915,LOCHGILPHEAD ,ARGYLL (IN STRATHCLYDE REGION) ,COUNTY ,01/01/1984,Current ,56.0344,-5.42661,PA31 8 
67,LOCH GLASCARNOCH ,ROSS & CROMARTY ,COUNTY ,01/01/1992,Current ,57.7251,-4.89419,IV23 2 
17344,LOFTUS ,CLEVELAND ,COUNTY ,01/07/1996,Current ,54.5627,-0.86188,TS13 4 
13343,LOGAN BOTANIC GARDEN ,WIGTOWNSHIRE ,COUNTY ,01/01/1907,Current ,54.7428,-4.95741,DG9 9 
18929,LONDON CITY ,GREATER LONDON ,COUNTY ,01/10/1987,Current ,51.5208,0.07579,E6 4 
18946,LONDONDERRY/EGLINTON ,LONDONDERRY ,COUNTY ,01/03/1990,Current ,55.0434,-7.1583,BT47 3 
697,LONDON: ST JAMES'S PARK ,GREATER LONDON ,COUNTY ,01/01/1903,Current ,51.5042,-0.12948,SW1A 1 
137,LOSSIEMOUTH ,MORAY (IN GRAMPIAN REGION) ,COUNTY ,01/01/1941,Current ,57.7115,-3.32186,IV31 6 
1435,LOUGH FEA ,LONDONDERRY ,COUNTY ,01/01/1965,Current ,54.7211,-6.81376,BT45 7 
1563,LOUGH NAVAR FOREST ,FERMANAGH ,COUNTY ,01/01/1961,Current ,54.4391,-7.90006,BT93 6 
466,LUTON ,BEDFORDSHIRE ,COUNTY ,01/01/1964,Current ,51.8813,-0.37555,LU2 9 
759,LYDD-ASHFORD AIRPORT ,KENT ,COUNTY ,01/07/1983,Current ,50.958,0.94219,TN29 9 
886,LYNEHAM ,WILTSHIRE ,COUNTY ,01/01/1945,Current ,51.5028,-1.99094,SN15 4 
56907,MACE HEAD ,GALWAY ,COUNTY ,01/04/2008,Current ,53.317,-9.9,None 
908,MACHRIHANISH ,ARGYLL (IN STRATHCLYDE REGION) ,COUNTY ,01/01/1965,Current ,55.4408,-5.69571,PA28 6 
56963,MAGILLIGAN NO 2 ,LONDONDERRY ,COUNTY ,04/08/2011,Current ,55.1604,-6.94835,BT49 0 
509,MALHAM TARN ,NORTH YORKSHIRE ,COUNTY ,01/01/1949,Current ,54.0996,-2.16228,BD24 9 
17102,MALIN HEAD ,DONEGAL ,COUNTY ,01/01/1974,Current ,55.366,-7.333,None 
24219,MANNINGTON HALL ,NORFOLK ,COUNTY ,11/12/1998,Current ,52.8437,1.18115,NR11 
775,MANSTON ,KENT ,COUNTY ,01/01/1928,Current ,51.346,1.33716,CT12 5 
57233,MARGAM NO 2 ,GLAMORGANSHIRE ,COUNTY ,01/02/2013,Current ,51.5548,-3.72014,SA13 2 
409,MARHAM ,NORFOLK ,COUNTY ,01/01/1951,Current ,52.651,0.56772,PE33 9 
30529,MARKET BOSWORTH: BOSWORTH PARK ,LEICESTERSHIRE ,COUNTY ,01/03/2002,Current ,52.6228,-1.394,CV13 0 
62130,MARNHULL ,DORSET ,COUNTY ,13/07/2017,Current ,50.9792,-2.31652,DT10 1 
61846,MARTIN DOWN NNR ,HAMPSHIRE ,COUNTY ,12/02/2014,01/10/2018,50.9684,-1.91645,SP6 
62037,MAULDS MEABURN ,CUMBRIA ,COUNTY ,01/08/2015,Current ,54.5383,-2.58078,CA10 3 
720,MICKLEHAM ,SURREY ,COUNTY ,1899-01-01 ,Current ,51.2603,-0.31896,RH5 6 
62033,MIDDLESMOOR ,NORTH YORKSHIRE ,COUNTY ,07/07/2015,Current ,54.1643,-1.86164,HG3 5 
56423,MIDDLETON: HILLSIDE ,DERBYSHIRE ,COUNTY ,01/05/2009,Current ,53.0988,-1.58713,DE4 4 
847,MIDDLE WALLOP ,HAMPSHIRE ,COUNTY ,01/01/1959,Current ,51.1493,-1.56851,SO20 8 
18930,MILDENHALL NO 2 ,SUFFOLK ,COUNTY ,01/07/1983,Current ,52.3878,0.53367,IP27 9 
1215,MILFORD HAVEN CONSERVANCY BOARD ,DYFED ,COUNTY ,01/01/1951,Current ,51.7084,-5.05229,SA73 3 
56486,MONA ,ISLE OF ANGLESEY ,COUNTY ,14/10/2009,Current ,53.2603,-4.37482,LL77 7 
456,MONKS WOOD ,CAMBRIDGESHIRE ,COUNTY ,01/01/1963,Current ,52.4012,-0.23532,PE17 2 
16851,MORECAMBE NO 2 ,LANCASHIRE ,COUNTY ,01/01/1915,Current ,54.0761,-2.85825,LA5 
310,MORPETH: COCKLE PARK ,NORTHUMBERLAND ,COUNTY ,1897-01-01 ,Current ,55.2129,-1.68615,NE61 3 
980,MOTHERWELL: STRATHCLYDE PARK ,LANARKSHIRE ,COUNTY ,01/01/1979,Current ,55.786,-4.02175,ML3 6 
61948,MOTTEY MEADOWS NNR ,STAFFORDSHIRE ,COUNTY ,07/11/2014,01/10/2018,52.7128,-2.24066,TF10 9 
61744,MOUNT ALICE: FALKLAND ISLANDS ,FALKLAND IS ,ISLAND ,01/09/2013,Current ,-52.153,-60.598,None 
61743,MOUNT BYRON: FALKLAND ISLANDS ,FALKLAND IS ,ISLAND ,01/09/2013,Current ,-51.424,-60.564,None 
61737,MOUNT KENT: FALKLAND ISLANDS ,FALKLAND IS ,ISLAND ,01/09/2013,Current ,-51.673,-58.108,None 
56810,MOUNT OLYMPUS ,CYPRUS ,ISLAND ,01/10/2010,Current ,34.933,32.867,None 
1609,MOUNT PLEASANT: FALKLAND IS ,FALKLAND IS ,ISLAND ,01/05/1985,Current ,-51.817,-58.45,None 
954,MUGDOCK PARK ,STIRLING (IN CENTRAL REGION) ,COUNTY ,01/01/1990,Current ,55.9733,-4.32921,G62 8 
17099,MULLINGAR ,WESTMEATH ,COUNTY ,01/01/1974,Current ,53.533,-7.36607,None 
1255,MUMBLES HEAD ,WEST GLAMORGAN ,COUNTY ,01/01/1958,Current ,51.5651,-3.98056,SA3 4 
1502,MURLOUGH ,DOWN ,COUNTY ,01/01/1968,Current ,54.245,-5.83066,BT33 0 
1112,MYERSCOUGH ,LANCASHIRE ,COUNTY ,01/01/1970,Current ,53.8536,-2.76541,PR3 0 
181,MYLNEFIELD ,ANGUS ,COUNTY ,01/01/1954,Current ,56.457,-3.07182,DD2 5 
1132,NANTWICH: REASEHEATH HALL ,CHESHIRE ,COUNTY ,1895-01-01 ,Current ,53.0859,-2.52463,CW5 6 
1291,NETTLECOMBE ,SOMERSET ,COUNTY ,01/01/1968,Current ,51.1303,-3.34883,TA4 4 
18931,NEWCASTLE/WOOLSINGTON ,TYNE & WEAR ,COUNTY ,01/07/1983,Current ,55.033,-1.68393,NE23 9 
651,NEWPORT (SALOP) ,SHROPSHIRE ,COUNTY ,01/01/1903,Current ,52.7774,-2.42631,TF10 8 
56361,NEWQUAY CORNWALL AIRPORT ,CORNWALL ,COUNTY ,20/12/2008,Current ,50.438,-4.99656,TR8 4 
1073,NEWTON RIGG ,CUMBRIA ,COUNTY ,1883-01-01 ,Current ,54.6699,-2.78644,CA11 0 
382,NORMANBY HALL ,HUMBERSIDE ,COUNTY ,01/01/1993,Current ,53.6366,-0.65777,DN15 9 
578,NORTHAMPTON: MOULTON PARK ,NORTHAMPTONSHIRE ,COUNTY ,01/01/1976,23/07/2018,52.2732,-0.87937,NN2 7 
709,NORTHOLT ,GREATER LONDON ,COUNTY ,01/01/1946,Current ,51.5481,-0.41534,HA4 6 
57247,NORTH SOLENT NNR ,HAMPSHIRE ,COUNTY ,01/03/2013,01/10/2018,50.7762,-1.39747,SO42 7 
1352,NORTH WYKE ,DEVON ,COUNTY ,01/01/1965,Current ,50.7682,-3.90277,EX20 2 
556,NOTTINGHAM: WATNALL ,NOTTINGHAMSHIRE ,COUNTY ,01/01/1941,Current ,53.0053,-1.24969,NG16 1 
262,NUNRAW ABBEY ,EAST LOTHIAN ,COUNTY ,01/01/1971,Current ,55.9213,-2.65051,EH41 4 
56906,OAK PARK ,CARLOW ,COUNTY ,01/04/2008,Current ,52.861,-6.915,None 
862,ODIHAM ,HAMPSHIRE ,COUNTY ,01/01/1963,Current ,51.2385,-0.94346,RG25 1 
1345,OKEHAMPTON: EAST OKEMENT FARM ,DEVON ,COUNTY ,01/01/1991,Current ,50.7029,-3.97634,EX20 1 
61847,OLD WINCHESTER HILL NNR ,HAMPSHIRE ,COUNTY ,12/02/2014,01/10/2018,50.9823,-1.08054,SO32 
1217,ORIELTON ,DYFED ,COUNTY ,01/01/1964,Current ,51.653,-4.95931,SA71 5 
25315,ORKNEY: LOCH OF HUNDLAND ,ORKNEY ,SCOTTISH REGION ,01/11/1999,Current ,59.1126,-3.22773,KW17 
1529,ORLOCK HEAD ,DOWN ,COUNTY ,01/01/1965,Current ,54.6736,-5.58298,BT33 
855,OTTERBOURNE W WKS ,HAMPSHIRE ,COUNTY ,1892-01-01 ,Current ,51.0084,-1.33388,SO21 2 
606,OXFORD ,OXFORDSHIRE ,COUNTY ,1794-01-01 ,Current ,51.7607,-1.2625,OX2 6 
62004,OYNE NO 2 ,ABERDEENSHIRE ,COUNTY ,18/03/2015,Current ,57.3207,-2.54366,AB52 
25726,PATELEY BRIDGE: RAVENS NEST ,NORTH YORKSHIRE ,COUNTY ,01/04/2000,Current ,54.0702,-1.76995,LS29 
25353,PEATLANDS ,ARMAGH ,COUNTY ,01/03/2000,Current ,54.4833,-6.61911,BT71 
1606,PEBBLE ISLAND: FALKLAND IS ,FALKLAND IS ,ISLAND ,01/01/1991,Current ,-51.317,-59.6,None 
1226,PEMBREY SANDS ,DYFED ,COUNTY ,01/01/1993,Current ,51.714,-4.36632,SA17 4 
249,PENICUIK ,MIDLOTHIAN (IN LOTHIAN REGION) ,COUNTY ,01/01/1944,Current ,55.8231,-3.22628,EH26 9 
634,PENNERLEY ,SHROPSHIRE ,COUNTY ,01/01/1988,Current ,52.5896,-2.94823,SY5 0 
657,PERSHORE ,HEREFORD & WORCESTER ,COUNTY ,01/01/1953,Current ,52.148,-2.03979,WR10 2 
658,PERSHORE COLLEGE ,HEREFORD & WORCESTER ,COUNTY ,01/01/1952,Current ,52.0996,-2.05856,WR10 3 
170,PETERHEAD HARBOUR ,ABERDEENSHIRE ,COUNTY ,01/01/1979,Current ,57.5027,-1.77257,AB42 6 
62152,PITSFORD ,NORTHAMPTONSHIRE ,COUNTY ,01/08/2018,Current ,52.3014,-0.89308,NN6 9 
64,PLOCKTON ,ROSS & CROMARTY ,COUNTY ,01/01/1962,Current ,57.3375,-5.65212,IV52 8 
1336,PLYMOUTH: MOUNTBATTEN ,DEVON ,COUNTY ,01/01/1920,Current ,50.3544,-4.11986,PL9 9 
972,POLLOK COUNTRY PARK ,RENFREWSHIRE ,COUNTY ,01/01/1991,Current ,55.8256,-4.31421,G43 1 
60,POOLEWE ,ROSS & CROMARTY ,COUNTY ,01/01/1955,Current ,57.7745,-5.596,IV22 2 
1448,PORTGLENONE ,ANTRIM ,COUNTY ,01/01/1989,Current ,54.8653,-6.45686,BT44 8 
55890,PORT HENDERSON ,ROSS & CROMARTY ,COUNTY ,01/10/2005,Current ,57.696,-5.77585,IV21 2 
1166,PORTHMADOG ,GWYNEDD ,COUNTY ,01/01/1993,Current ,52.9143,-4.15683,LL49 9 
62015,PORTPATRICK: CRAIGENLEE CROFT ,WIGTOWNSHIRE ,COUNTY ,01/04/2015,Current ,54.8629,-5.07411,DG9 8 
1141,PRESTATYN ,CLWYD ,COUNTY ,01/01/1932,Current ,53.3414,-3.41069,LL19 7 
16612,PRESTON: COVE HOUSE ,DORSET ,COUNTY ,01/11/1995,Current ,50.6368,-2.42436,DT3 6 
638,PRESTON MONTFORD ,SHROPSHIRE ,COUNTY ,01/01/1976,Current ,52.7243,-2.84043,SY4 1 
1111,PRESTON: MOOR PARK ,LANCASHIRE ,COUNTY ,1876-01-01 ,Current ,53.774,-2.70337,PR1 6 
1007,PRESTWICK: GANNET ,AYRSHIRE ,COUNTY ,01/01/1993,Current ,55.5153,-4.58343,KA9 2 
1006,PRESTWICK NO 2 ,AYRSHIRE ,COUNTY ,01/01/1957,Current ,55.5014,-4.58255,KA9 2 
30750,RAVENSWORTH ,NORTH YORKSHIRE ,COUNTY ,01/11/2002,Current ,54.4714,-1.78341,None 
830,READING UNIVERSITY: WHITEKNIGHTS ,BERKSHIRE ,COUNTY ,01/01/1968,Current ,51.4408,-0.93662,RG6 2 
16589,REDESDALE CAMP ,NORTHUMBERLAND ,COUNTY ,01/01/1979,Current ,55.285,-2.2779,NE19 1 
56216,RESALLACH ,SUTHERLAND ,COUNTY ,01/09/2007,Current ,58.0637,-5.01493,IV27 4 
1267,RHOOSE ,SOUTH GLAMORGAN ,COUNTY ,01/01/1954,Current ,51.4001,-3.3428,CF6 9 
1137,RHYL NO 2 ,CLWYD ,COUNTY ,01/01/1986,Current ,53.259,-3.50754,LL22 9 
7228,RINGMER: BISHOPS LANE ,EAST SUSSEX ,COUNTY ,01/01/1989,Current ,50.896,0.05966,BN8 5 
1135,RINGWAY ,GREATER MANCHESTER ,COUNTY ,01/01/1941,Current ,53.3559,-2.27949,M22 5 
1125,ROCHDALE ,GREATER MANCHESTER ,COUNTY ,01/01/1914,Current ,53.6085,-2.17709,OL11 4 
17089,ROCHES POINT ,CORK ,COUNTY ,01/01/1983,Current ,51.799,-8.24993,None 
1304,RODNEY STOKE ,SOMERSET ,COUNTY ,01/01/1964,01/03/2018,51.2478,-2.73295,BS27 3 
1046,RONALDSWAY ,ISLE OF MAN ,ISLAND ,01/01/1946,Current ,54.0851,-4.6307,IM9 2 
671,ROSS-ON-WYE ,HEREFORD & WORCESTER ,COUNTY ,01/01/1914,Current ,51.9108,-2.58441,HR9 5 
57199,ROSTHERNE NO 2 ,CHESHIRE ,COUNTY ,31/10/2012,Current ,53.3598,-2.38053,WA1 
471,ROTHAMSTED ,HERTFORDSHIRE ,COUNTY ,1872-01-01 ,Current ,51.8062,-0.35858,AL5 2 
62034,ROUDSEA WOOD AND MOSSES NNR ,CUMBRIA ,COUNTY ,30/09/2015,Current ,54.2363,-3.02315,LA12 8 
529,RYHILL ,WEST YORKSHIRE ,COUNTY ,01/01/1994,Current ,53.6282,-1.39273,WF4 2 
982,SALSBURGH ,LANARKSHIRE ,COUNTY ,01/01/1964,Current ,55.8615,-3.87409,ML6 8 
57266,SALTFLEETBY ST CLEMENTS ,LINCOLNSHIRE ,COUNTY ,09/05/2013,03/06/2017,53.3983,0.18897,LN11 7 
413,SANTON DOWNHAM ,SUFFOLK ,COUNTY ,01/01/1960,Current ,52.4588,0.6729,IP27 0 
381,SCAMPTON ,LINCOLNSHIRE ,COUNTY ,01/01/1963,Current ,53.3066,-0.54649,LN1 2 
360,SCARBOROUGH ,NORTH YORKSHIRE ,COUNTY ,01/03/1987,Current ,54.2726,-0.42099,YO12 4 
18936,SCATSTA NO 2 ,SHETLAND ,SCOTTISH REGION ,01/07/1983,Current ,60.4374,-1.29305,ZE2 
1386,SCILLY: ST MARYS AIRPORT ,ISLES OF SCILLY ,ISLAND ,01/01/1979,Current ,49.914,-6.29488,TR21 0 
1221,SCOLTON COUNTRY PARK ,DYFED ,COUNTY ,01/01/1989,Current ,51.8593,-4.92046,SA62 5 
1611,SEALION ISLAND: FALKLAND IS ,FALKLAND IS ,ISLAND ,01/01/1992,Current ,-52.433,-59.083,None 
9092,SEAVINGTON: HURCOTT FARM ,SOMERSET ,COUNTY ,01/01/1984,Current ,50.9408,-2.85988,TA19 0 
10,SELLA NESS ,SHETLAND ,SCOTTISH REGION ,01/01/1979,Current ,60.4479,-1.27581,ZE2 9 
16611,SENNYBRIDGE NO 2 ,POWYS (SOUTH) ,COUNTY ,01/07/1995,Current ,52.0629,-3.61341,LD4 4 
17094,SHANNON AIRPORT ,CLARE ,COUNTY ,01/01/1974,Current ,52.699,-8.91603,None 
1083,SHAP ,CUMBRIA ,COUNTY ,01/01/1982,Current ,54.502,-2.68347,CA10 3 
643,SHAWBURY ,SHROPSHIRE ,COUNTY ,01/01/1944,Current ,52.7943,-2.66329,SY4 4 
525,SHEFFIELD ,SOUTH YORKSHIRE ,COUNTY ,1882-01-01 ,Current ,53.381,-1.48986,S10 2 
24997,SHEFFIELD CITY AIRPORT ,SOUTH YORKSHIRE ,COUNTY ,03/06/1997,Current ,53.3996,-1.3833,S65 
56905,SHERKIN ISLAND ,CORK ,COUNTY ,01/04/2008,Current ,51.467,-9.417,None 
609,SHIRBURN MODEL FARM ,OXFORDSHIRE ,COUNTY ,01/01/1968,Current ,51.669,-0.99477,OX9 5 
669,SHOBDON AIRFIELD ,HEREFORD & WORCESTER ,COUNTY ,01/06/1943,Current ,52.2426,-2.8845,HR6 9 
498,SHOEBURYNESS: LANDWICK ,ESSEX ,COUNTY ,01/01/1981,Current ,51.5542,0.82872,SS3 9 
795,SHOREHAM AIRPORT ,WEST SUSSEX ,COUNTY ,01/07/1983,Current ,50.8356,-0.29194,BN43 5 
403,SKEGNESS ,LINCOLNSHIRE ,COUNTY ,1881-01-01 ,Current ,53.1476,0.34797,PE25 2 
19172,SKYE: LUSA ,WESTERN ISLES ,SCOTTISH REGION ,20/06/1997,02/05/2017,57.2572,-5.80418,PA81 5 
1362,SLAPTON ,DEVON ,COUNTY ,01/01/1960,Current ,50.2922,-3.65074,TQ7 2 
854,SOUTHAMPTON: EASTLEIGH ,HAMPSHIRE ,COUNTY ,01/01/1952,Current ,50.9483,-1.36077,SO2 2 
25727,SOUTHAMPTON: OCEANOGRAPHY CENTRE ,HAMPSHIRE ,COUNTY ,22/05/2000,Current ,50.8918,-1.39361,SO2 
18937,SOUTHEND AIRPORT ,ESSEX ,COUNTY ,01/07/1983,Current ,51.5748,0.73213,SS3 0 
869,SOUTH FARNBOROUGH ,HAMPSHIRE ,COUNTY ,01/01/1914,Current ,51.2794,-0.77107,GU14 7 
607,SOUTH NEWINGTON ,OXFORDSHIRE ,COUNTY ,01/01/1994,Current ,51.9977,-1.40465,OX15 0 
62082,SOUTH STAINMORE: NO.2 ,CUMBRIA ,COUNTY ,01/06/2016,Current ,54.5131,-2.24329,CA17 4 
18903,SOUTH UIST RANGE ,WESTERN ISLES ,SCOTTISH REGION ,16/07/1996,Current ,57.3578,-7.38385,PA81 5 
1076,SPADEADAM NO 2 ,CUMBRIA ,COUNTY ,01/12/1986,Current ,55.0501,-2.55297,CA6 7 
1101,SPEKE ,MERSEYSIDE ,COUNTY ,01/01/1946,Current ,53.3316,-2.8455,L24 5 
484,STANSTED ,ESSEX ,COUNTY ,01/01/1950,Current ,51.8805,0.22456,CM24 1 
19206,ST ATHAN ,SOUTH GLAMORGAN ,COUNTY ,01/09/1988,Current ,51.405,-3.43952,CF62 4 
1055,ST BEES HEAD NO 2 ,CUMBRIA ,COUNTY ,01/01/1983,Current ,54.5177,-3.61345,CA28 9 
62142,ST HARMON NO 2 ,POWYS ,COUNTY ,05/04/2018,Current ,52.3639,-3.47388,LD6 5 
1119,STONYHURST ,LANCASHIRE ,COUNTY ,1848-01-01 ,Current ,53.8449,-2.46847,BB6 9 
1507,STORMONT CASTLE ,DOWN ,COUNTY ,01/01/1956,Current ,54.6028,-5.82859,BT4 3 
54,STORNOWAY AIRPORT ,WESTERN ISLES ,SCOTTISH REGION ,1873-01-01 ,Current ,58.2138,-6.31772,PA86 0 
57093,STOWE ,BUCKINGHAMSHIRE ,COUNTY ,18/04/2012,Current ,52.0413,-1.01177,MK18 5 
212,STRATHALLAN AIRFIELD ,PERTHSHIRE (IN TAYSIDE REGION) ,COUNTY ,01/01/1989,Current ,56.3265,-3.72734,PH3 1 
50,STRATHY EAST ,SUTHERLAND ,COUNTY ,01/01/1987,Current ,58.5613,-3.99046,KW14 7 
17,SULE SKERRY ,ORKNEY ,SCOTTISH REGION ,01/01/1952,Current ,59.0828,-4.40311,KW14 
4,SUMBURGH ,SHETLAND ,SCOTTISH REGION ,01/01/1971,Current ,59.8793,-1.29736,ZE3 9 
554,SUTTON BONINGTON ,NOTTINGHAMSHIRE ,COUNTY ,01/01/1900,Current ,52.8361,-1.24961,LE12 5 
1326,SWANAGE ,DORSET ,COUNTY ,01/01/1928,Current ,50.6131,-1.95737,BH19 1 
1204,SWYDDFFYNNON ,DYFED ,COUNTY ,01/01/1955,Current ,52.2715,-3.91469,SY25 6 
61974,SYERSTON ,NOTTINGHAMSHIRE ,COUNTY ,01/12/2014,01/12/2014,53.0169,-0.91982,NG23 5 
79,TAIN RANGE ,ROSS & CROMARTY ,COUNTY ,01/01/1989,Current ,57.8191,-3.96524,IV19 1 
62073,TEDDINGTON: BUSHY PARK ,MIDDLESEX ,COUNTY ,24/01/2017,Current ,51.4217,-0.33908,TW11 0 
18941,TEES-SIDE ,CLEVELAND ,COUNTY ,01/07/1983,Current ,54.5832,-1.34698,TS19 8 
1371,TEIGNMOUTH ,DEVON ,COUNTY ,01/01/1903,Current ,50.5445,-3.49368,TQ14 8 
1222,TENBY ,DYFED ,COUNTY ,01/01/1969,Current ,51.6682,-4.70677,SA70 7 
57250,THE LIZARD NNR ,CORNWALL ,COUNTY ,01/03/2013,01/10/2018,50.0354,-5.19827,TR12 7 
57063,THOMASTOWN ,FERMANAGH ,COUNTY ,26/06/2012,Current ,54.3295,-7.59413,BT94 2 
2710,THORNES PARK ,WEST YORKSHIRE ,COUNTY ,01/01/1978,Current ,53.6721,-1.51462,WF2 8 
779,THORNEY ISLAND ,WEST SUSSEX ,COUNTY ,01/01/1941,Current ,50.8142,-0.92098,PO10 8 
1035,THREAVE ,KIRKCUDBRIGHTSHIRE ,COUNTY ,01/01/1930,Current ,54.9257,-3.94844,DG7 1 
61986,TIBENHAM AIRFIELD ,NORFOLK ,COUNTY ,12/02/2015,Current ,52.4562,1.16399,NR16 1 
18974,TIREE ,ARGYLL (IN STRATHCLYDE REGION) ,COUNTY ,01/01/1926,Current ,56.5,-6.8796,PA77 6 
62151,TOMNAVOULIN ,MORAY (IN HIGHLAND REGION) ,COUNTY ,07/06/2018,Current ,57.3192,-3.30974,AB37 9 
16596,TOPCLIFFE ,NORTH YORKSHIRE ,COUNTY ,01/01/1947,Current ,54.2045,-1.38856,YO7 3 
18942,TOPCLIFFE AIRFIELD ,NORTH YORKSHIRE ,COUNTY ,01/02/1988,Current ,54.2631,-1.31827,YO7 2 
1494,TRASSEY SLIEVENAMAN ,DOWN ,COUNTY ,01/01/1985,Current ,54.2054,-6.00518,BT33 0 
1209,TRAWSGOED ,DYFED ,COUNTY ,01/01/1950,Current ,52.3439,-3.94683,SY23 4 
1276,TREDEGAR: BRYN BACH PARK NO 2 ,GWENT ,COUNTY ,01/01/1995,Current ,51.7834,-3.2667,NP2 3 
56339,TREGARTH ,GWYNEDD ,COUNTY ,01/12/2008,21/09/2017,53.188,-4.10473,LL57 4 
1412,TREKNOW ,CORNWALL ,COUNTY ,01/01/1992,Current ,50.6459,-4.75427,PL34 0 
105,TULLOCH BRIDGE ,INVERNESS-SHIRE ,COUNTY ,01/01/1982,Current ,56.8667,-4.7067,PH31 4 
246,TURNHOUSE ,MIDLOTHIAN (IN LOTHIAN REGION) ,COUNTY ,01/01/1947,Current ,55.9508,-3.34692,EH12 0 
195,TYNDRUM NO 3 ,PERTHSHIRE (IN CENTRAL REGION) ,COUNTY ,01/01/1990,Current ,56.4192,-4.65976,FK20 8 
61908,UNDERTON ,SHROPSHIRE ,COUNTY ,01/07/2014,Current ,52.5234,-2.46652,WV16 6 
19159,UPPER LAMBOURN ,BERKSHIRE ,COUNTY ,01/04/1997,21/09/2017,51.5193,-1.54735,RG17 8 
55896,URQUHART: NORTHWOOD ,ROSS & CROMARTY ,COUNTY ,01/11/2005,Current ,57.5945,-4.37275,IV7 8 
56939,USK NO 2 ,MONMOUTHSHIRE ,COUNTY ,26/05/2011,Current ,51.7139,-2.92184,NP15 1 
17090,VALENTIA OBSERVATORY ,KERRY ,COUNTY ,01/01/1974,Current ,51.9397,-10.2444,None 
1145,VALLEY ,GWYNEDD ,COUNTY ,01/12/1930,Current ,53.2524,-4.53524,LL65 3 
1243,VELINDRE ,POWYS (SOUTH) ,COUNTY ,01/01/1982,Current ,52.0252,-3.18601,LD3 0 
8605,VIRGINSTOW: BEAWORTHY ,DEVON ,COUNTY ,01/01/1976,Current ,50.7104,-4.29594,EX21 5 
384,WADDINGTON ,LINCOLNSHIRE ,COUNTY ,01/01/1946,Current ,53.1751,-0.52173,LN5 9 
16725,WAINFLEET NO 2 ,LINCOLNSHIRE ,COUNTY ,01/01/1988,Current ,53.088,0.27265,PE24 4 
825,WALLINGFORD ,OXFORDSHIRE ,COUNTY ,01/01/1960,Current ,51.6026,-1.11173,OX10 8 
300,WALLINGTON ,NORTHUMBERLAND ,COUNTY ,01/01/1994,Current ,55.1542,-1.94306,NE61 4 
1078,WALNEY ISLAND ,CUMBRIA ,COUNTY ,01/01/1971,Current ,54.1247,-3.25657,LA14 3 
1074,WARCOP RANGE ,CUMBRIA ,COUNTY ,01/01/1983,Current ,54.5723,-2.41172,CA16 6 
440,WATTISHAM ,SUFFOLK ,COUNTY ,01/01/1959,Current ,52.1234,0.9591,IP7 7 
1607,WEDDLE ISLAND: FALKLAND IS ,FALKLAND IS ,ISLAND ,01/01/1991,Current ,-51.9,-60.917,None 
596,WELLESBOURNE ,WARWICKSHIRE ,COUNTY ,01/01/1950,Current ,52.2054,-1.60345,CV35 9 
1039,WEST FREUGH ,WIGTOWNSHIRE ,COUNTY ,01/01/1943,Current ,54.859,-4.93414,DG9 9 
691,WESTONBIRT ,GLOUCESTERSHIRE ,COUNTY ,01/01/1976,Current ,51.6065,-2.21947,GL8 8 
9280,WESTONZOYLAND ,SOMERSET ,COUNTY ,01/01/1988,Current ,51.1146,-2.92078,TA7 0 
421,WEYBOURNE ,NORFOLK ,COUNTY ,01/01/1986,Current ,52.949,1.12413,NR25 7 
359,WHITBY ,NORTH YORKSHIRE ,COUNTY ,01/01/1939,Current ,54.4807,-0.62411,YO21 3 
1223,WHITECHURCH ,DYFED ,COUNTY ,01/01/1975,Current ,51.9883,-4.67792,SA41 3 
61949,WHIXALL MOSSES NNR ,SHROPSHIRE ,COUNTY ,07/11/2014,01/10/2018,52.9252,-2.75489,SY13 2 
32,WICK AIRPORT ,CAITHNESS ,COUNTY ,1873-01-01 ,Current ,58.4541,-3.0884,KW1 4 
16769,WIGGONHOLT ,WEST SUSSEX ,COUNTY ,01/01/1995,Current ,50.9376,-0.49214,RH20 2 
17224,WIGHT: NEEDLES OLD BATTERY ,ISLE OF WIGHT ,COUNTY ,01/01/1996,Current ,50.6623,-1.58206,PO39 
878,WIGHT: SHANKLIN ,ISLE OF WIGHT ,COUNTY ,01/01/1947,Current ,50.6231,-1.17941,PO37 6 
876,WIGHT: ST CATHERINES POINT ,ISLE OF WIGHT ,COUNTY ,01/01/1924,Current ,50.5751,-1.29549,PO38 2 
877,WIGHT: VENTNOR PARK ,ISLE OF WIGHT ,COUNTY ,01/01/1926,Current ,50.5922,-1.21178,PO38 1 
62119,WILLINGTON ,DERBYSHIRE ,COUNTY ,15/03/2017,Current ,52.8641,-1.55705,DE65 6 
10268,WINCHCOMBE: SUDELEY CASTLE ,GLOUCESTERSHIRE ,COUNTY ,01/01/1922,Current ,51.9475,-1.95271,GL54 5 
56424,WINTERBOURNE NO2 ,WEST MIDLANDS ,COUNTY ,03/02/2011,Current ,52.456,-1.92619,B15 2 
719,WISLEY ,SURREY ,COUNTY ,01/01/1904,Current ,51.3103,-0.47478,GU23 6 
62139,WISLEY NO 2 ,SURREY ,COUNTY ,08/05/2018,Current ,51.3098,-0.47392,GU23 6 
583,WITTERING ,CAMBRIDGESHIRE ,COUNTY ,01/01/1955,Current ,52.6115,-0.46632,PE8 6 
458,WOBURN ,BEDFORDSHIRE ,COUNTY ,1882-01-01 ,Current ,52.014,-0.59457,MK43 0 
25069,WOODVALE ,MERSEYSIDE ,COUNTY ,01/11/1999,Current ,53.5674,-3.04953,L37 
487,WRITTLE ,ESSEX ,COUNTY ,01/01/1940,Current ,51.733,0.43079,CM1 3 
23450,WYCH CROSS ,EAST SUSSEX ,COUNTY ,01/06/1998,Current ,51.0653,0.03443,RH18 5 
61844,WYRE FOREST NNR ,WORCESTERSHIRE ,COUNTY ,09/04/2014,01/10/2018,52.3842,-2.3476,DY12 
61938,YARNER WOOD NNR ,DEVON ,DRAINAGE ID ,07/10/2014,01/10/2018,50.5918,-3.71556,TQ13 9 
1302,YEOVILTON ,SOMERSET ,COUNTY ,01/01/1964,Current ,51.0059,-2.64148,BA22 8 
